[
    {
        "id": 1,
        "name": "Apotheke Wiesental",
        "date_time": "19.02.2024 08:30 Uhr - 20.02.2024 08:30 Uhr",
        "tel": "07254 - 9 23 90",
        "location": "Robert-Koch-Str. 18 68753 Waghäusel - Wiesental"
    },
    {
        "id": 2,
        "name": "Apotheke Wiesental",
        "date_time": "19.02.2024 08:30 Uhr - 20.02.2024 08:30 Uhr",
        "tel": "07254 - 9 23 90",
        "location": "Robert-Koch-Str. 18 68753 Waghäusel - Wiesental"
    },
    {
        "id": 3,
        "name": "BApotheke Wiesental",
        "date_time": "19.02.2024 08:30 Uhr - 20.02.2024 08:30 Uhr",
        "tel": "07254 - 9 23 90",
        "location": "Robert-Koch-Str. 18 68753 Waghäusel - Wiesental"
    },
    {
        "id": 4,
        "name": "CApotheke Wiesental",
        "date_time": "19.02.2024 08:30 Uhr - 20.02.2024 08:30 Uhr",
        "tel": "07254 - 9 23 90",
        "location": "Robert-Koch-Str. 18 68753 Waghäusel - Wiesental"
    },
    {
        "id": 5,
        "name": "FApotheke Wiesental",
        "date_time": "19.02.2024 08:30 Uhr - 20.02.2024 08:30 Uhr",
        "tel": "07254 - 9 23 90",
        "location": "Robert-Koch-Str. 18 68753 Waghäusel - Wiesental"
    },
    {
        "id": 6,
        "name": "Apotheke Wiesental",
        "date_time": "19.02.2024 08:30 Uhr - 20.02.2024 08:30 Uhr",
        "tel": "07254 - 9 23 90",
        "location": "Robert-Koch-Str. 18 68753 Waghäusel - Wiesental"
    },
    {
        "id": 7,
        "name": "Apotheke Wiesental",
        "date_time": "19.02.2024 08:30 Uhr - 20.02.2024 08:30 Uhr",
        "tel": "07254 - 9 23 90",
        "location": "Robert-Koch-Str. 18 68753 Waghäusel - Wiesental"
    },
    {
        "id": 8,
        "name": "Apotheke Wiesental",
        "date_time": "19.02.2024 08:30 Uhr - 20.02.2024 08:30 Uhr",
        "tel": "07254 - 9 23 90",
        "location": "Robert-Koch-Str. 18 68753 Waghäusel - Wiesental"
    },
    {
        "id": 9,
        "name": "Apotheke Wiesental",
        "date_time": "19.02.2024 08:30 Uhr - 20.02.2024 08:30 Uhr",
        "tel": "07254 - 9 23 90",
        "location": "Robert-Koch-Str. 18 68753 Waghäusel - Wiesental"
    },
    {
        "id": 10,
        "name": "Apotheke Wiesental",
        "date_time": "19.02.2024 08:30 Uhr - 20.02.2024 08:30 Uhr",
        "tel": "07254 - 9 23 90",
        "location": "Robert-Koch-Str. 18 68753 Waghäusel - Wiesental"
    },
    {
        "id": 11,
        "name": "Apotheke Wiesental",
        "date_time": "19.02.2024 08:30 Uhr - 20.02.2024 08:30 Uhr",
        "tel": "07254 - 9 23 90",
        "location": "Robert-Koch-Str. 18 68753 Waghäusel - Wiesental"
    },
    {
        "id": 12,
        "name": "Apotheke Wiesental",
        "date_time": "19.02.2024 08:30 Uhr - 20.02.2024 08:30 Uhr",
        "tel": "07254 - 9 23 90",
        "location": "Robert-Koch-Str. 18 68753 Waghäusel - Wiesental"
    },
    {
        "id": 13,
        "name": "Apotheke Wiesental",
        "date_time": "19.02.2024 08:30 Uhr - 20.02.2024 08:30 Uhr",
        "tel": "07254 - 9 23 90",
        "location": "Robert-Koch-Str. 18 68753 Waghäusel - Wiesental"
    }
]